,City,Lat,Lng,Max Temp,Humidity,Cloudiness,Wind Speed,Country,Date,Hotel Lat,Hotel Lng,Hotel Name
0,barrow,71.2906,-156.7887,10.4,79,1,6.69,US,1619445931,71.2978529,-156.7711574,Top of the World Hotel
1,waspan,14.7419,-83.9717,80.6,83,20,3.09,NI,1619446125,14.7442969,-83.9719954,El Piloto Hotel
2,pangnirtung,66.1451,-65.7125,37.4,87,90,3.09,CA,1619446126,66.1476793,-65.71333849999999,Auyuittuq Lodge (Inns North)
3,avarua,-21.2078,-159.775,69.8,100,54,1.03,CK,1619446127,-21.1991091,-159.7953621,The Islander Hotel
4,yerbogachen,61.2767,108.0108,19.83,73,91,4.65,RU,1619446128,,,
5,soyo,-6.1349,12.3689,87.8,74,75,3.6,AO,1619446128,-6.1637984,12.352401,"Kinwica Resort-Hotel (Soyo, Angola)"
6,keti bandar,24.1447,67.4497,83.88,70,0,6.82,PK,1619446128,,,
7,port elizabeth,-33.918,25.5701,64.4,77,0,8.75,ZA,1619445948,-33.94592,25.593,Island Way Villa
8,amderma,-33.65,115.3333,61.0,86,100,0.45,AU,1619446129,-33.6596926,115.2786132,The Sebel Busselton
9,busselton,65.282,-126.8329,12.2,67,90,4.12,CA,1619446129,65.2779194,-126.8132154,Heritage Hotel
10,norman wells,7.9803,49.8164,85.82,63,100,4.34,SO,1619446129,7.9833646,49.8177064,DAAWAD HOTEL EYL
11,eyl,3.0707,172.7902,83.03,75,96,6.61,KI,1619446130,,,
12,butaritari,49.058,-122.4709,46.99,93,90,0.22,CA,1619446131,49.0587102,-122.4923643,Best Western Plus Country Meadows Inn
13,aldergrove,42.6001,-73.9662,42.01,41,8,1.34,US,1619445609,,,
14,albany,77.484,-69.3632,36.1,68,37,3.86,GL,1619445870,77.4692867,-69.2315911,Qaanaaq Hotel
15,qaanaaq,72.7868,-56.1549,36.39,86,100,2.4,GL,1619446132,72.78192059999999,-56.1512828,Café de Upernavik
16,upernavik,51.7716,52.7427,54.05,37,100,1.76,RU,1619446133,51.7654736,52.7529563,"Gostinitsa ""Uyutnaya"""
17,tashla,48.2193,26.2653,52.0,49,99,1.34,UA,1619446134,48.22989399999999,26.2694789,"Hotelʹno-Restorannyy Kompleks ""Valeriya"""
18,novoselytsya,62.456,-114.3525,-4.0,71,75,6.17,CA,1619446134,62.4575798,-114.372667,The Explorer Hotel
19,yellowknife,5.4112,100.3354,86.0,74,20,1.54,MY,1619445938,5.4231701,100.3357086,"Eastern & Oriental Hotel, Penang"
20,georgetown,65.6145,-37.6368,39.2,75,90,4.36,GL,1619446012,65.6091667,-37.63277780000001,Hotel Angmagssalik
21,attawapiskat,29.6994,-91.2068,70.0,100,1,2.57,US,1619446136,29.6963849,-91.18159089999999,Holiday Inn Express & Suites Morgan City - Tiger Island
22,tasiilaq,-0.9492,100.3543,78.8,94,40,2.06,ID,1619445844,-0.9239533000000001,100.3506119,Hotel Pangeran Beach
23,morgan city,60.7522,-137.5108,24.8,86,1,0.51,CA,1619446137,60.7509613,-137.509796,Parkside Inn
24,padang,71.9167,114.0833,-0.76,100,71,3.05,RU,1619446137,,,
25,haines junction,-53.15,-70.9167,42.8,100,90,1.03,CL,1619445971,-53.1659523,-70.9062125,Hotel Dreams Del Estrecho
26,saskylakh,28.0996,-16.681,73.0,68,75,3.6,ES,1619446137,28.0759858,-16.7337274,Hotel Jardín Tropical
27,punta arenas,-10.7073,22.2247,75.54,71,47,1.91,AO,1619445984,-10.7050983,22.2284206,Kimbo Hotel
28,arona,57.79,-152.4072,42.8,75,90,5.14,US,1619446138,57.78860899999999,-152.4119649,Best Western Kodiak Inn And Convention Center
29,luau,-20.3428,57.7575,78.8,78,75,7.2,MU,1619445898,-20.368109,57.719727,La Hacienda Hotel
30,kodiak,-21.3585,55.7679,78.8,73,20,7.2,RE,1619446138,-21.3692006,55.7279486,Les Embruns Du Baril
31,bambous virieux,64.2539,-15.2082,44.6,53,40,9.26,IS,1619445989,,,
32,saint-philippe,-27.55,151.9667,59.0,82,90,3.09,AU,1619446139,-27.564045,151.953084,Burke & Wills Hotel
33,hofn,-42.7826,147.0587,48.99,80,33,0.89,AU,1619445883,-42.77937379999999,147.0578732,The Woodbridge
34,toowoomba,15.1333,-23.2167,78.8,53,20,11.83,CV,1619446140,15.177069,-23.2304554,Bela Vista Maio Beach
35,taolanaro,-23.1203,-134.9692,77.09,75,11,2.4,PF,1619446140,,,
36,new norfolk,39.2167,-2.15,62.01,72,75,4.63,ES,1619446141,39.1938172,-2.1461846,Hostal Restaurante EL POLIGONO
37,vila do maio,-37.6167,-73.65,56.43,74,0,4.89,CL,1619446141,-37.6108295,-73.6556162,Hotel Plaza Lebu
38,rikitea,-34.4187,19.2345,72.0,61,6,0.89,ZA,1619446141,-34.4211674,19.2431805,Harbour House Hotel
39,la roda,38.0,37.0,75.2,31,20,11.83,TR,1619446143,,,
40,lebu,-46.6,168.3333,42.01,84,82,7.63,NZ,1619446143,-46.60016359999999,168.3461434,Foveaux Hotel
41,hermanus,61.9875,5.1352,48.2,49,20,3.6,NO,1619446144,61.98468399999999,5.1687574,Ulvesund FYR
42,kahramanmaras,-33.5906,26.891,79.3,57,100,5.49,ZA,1619445916,-33.5943286,26.8932478,The Halyards Hotel
43,bluff,71.0357,27.8492,35.6,64,75,6.69,NO,1619446145,71.03911339999999,27.8525496,Mehamn Arctic Hotel AS
44,raudeberg,69.4541,-133.0374,3.2,78,40,4.12,CA,1619446146,69.44260899999999,-133.0397,Hunter's B&B
45,port alfred,-22.9575,14.5053,78.8,44,0,6.69,,1619446146,-22.9613616,14.4827297,Protea Hotel by Marriott Walvis Bay Pelican Bay
46,ituni,-38.2667,141.9667,56.75,74,98,1.98,AU,1619446147,-38.2846732,142.0097987,Codrington Gardens Bed And Breakfast
47,mehamn,65.5833,-171.0,19.04,80,56,2.77,RU,1619446148,,,
48,tuktoyaktuk,-45.5752,-72.0662,53.6,62,75,1.54,CL,1619446124,-45.58981,-72.068596,Patagonia House
49,walvis bay,-33.2333,-54.3833,64.2,61,0,5.18,UY,1619446148,-33.230363,-54.387331,El Secreto Hotel Boutique
50,codrington,-8.9266,125.4092,56.17,75,9,0.81,TL,1619446149,,,
51,lavrentiya,42.097,-79.2353,39.99,64,1,6.69,US,1619446107,42.110095,-79.2851245,Chautauqua Harbor Hotel
52,vaitupu,42.975,144.3747,31.24,78,3,3.01,JP,1619445927,42.9847237,144.3804113,Kushiro Prince Hotel
53,saleaula,73.5069,80.5464,31.82,98,100,8.66,RU,1619446149,,,
54,coihaique,67.6803,53.1512,38.26,97,100,2.08,RU,1619446149,67.674654,53.132046,"""Avantage"" hotel"
55,treinta y tres,32.6667,-17.1,66.99,83,37,1.34,PT,1619446077,32.6798221,-17.1033613,Estalagem Da Ponta Do Sol
56,airai,42.6056,-83.1499,39.0,65,90,4.12,US,1619445870,42.56343890000001,-83.1517257,Detroit Marriott Troy
57,jamestown,-33.8667,121.9,64.4,59,100,1.54,AU,1619446150,-33.8586716,121.8955797,Comfort Inn Bay Of Isles
58,kushiro,49.9122,16.6119,53.01,34,34,1.79,CZ,1619446150,49.91465119999999,16.6132925,Hotel Forea
59,bur gabo,59.7,150.1667,13.28,89,15,1.63,RU,1619446151,,,
60,dikson,37.4636,-122.4286,48.0,93,75,1.49,US,1619446151,37.5019127,-122.4743659,Beach House - Half Moon Bay
61,iskateley,30.4833,-115.95,56.93,85,100,2.35,MX,1619446151,30.4871839,-115.9788888,Don Eddie's Landing
62,ponta do sol,53.0452,158.6483,35.6,100,90,2.0,RU,1619446085,53.03749999999999,158.6558333,Avacha Hotel
63,troy,66.0449,-17.3389,37.4,81,40,4.12,IS,1619446151,66.0460305,-17.3397434,Fosshotel Húsavík
64,esperance,59.7035,30.7861,41.0,87,75,3.0,RU,1619446152,,,
65,lanskroun,-20.7511,-51.6783,78.51,50,97,2.91,BR,1619445943,-20.7810658,-51.7032018,Taj Hotel
66,arman,40.4272,71.7189,80.6,19,0,2.06,UZ,1619446153,40.4416845,71.71644549999999,Diyor hotel
67,half moon bay,-24.7911,-50.0119,68.52,65,3,0.6,BR,1619446153,-24.789677,-50.0062751,Hotel Buganville Express
68,san quintin,34.2576,-88.7034,62.6,67,1,2.57,US,1619446017,34.2710396,-88.7163839,Holiday Inn & Suites Tupelo North
69,petropavlovsk-kamchatskiy,-32.035,-52.0986,71.6,64,40,5.14,BR,1619446052,-32.0479344,-52.1453493,Hotel Costa Doce
70,husavik,68.75,161.3,4.17,96,52,2.43,RU,1619446154,,,
71,nikolskoye,-3.1019,-60.025,80.6,83,75,2.06,BR,1619446155,-3.1296895,-60.024714,Hotel Villa Amazônia
72,tres lagoas,-46.1927,168.8643,42.01,84,100,2.78,NZ,1619446155,-46.19353110000001,168.8649695,Falls Hotel
73,komsomolskiy,-33.2926,23.4895,81.9,18,100,7.15,ZA,1619446155,-33.2963913,23.4848349,Royal Hotel
74,castro,27.9769,-114.0611,59.7,71,100,3.13,MX,1619446156,27.9677576,-114.0283356,Hotel Los Caracoles
75,tupelo,37.2647,-6.5167,66.99,76,100,1.79,ES,1619446156,37.26155,-6.51577,"Hotel Tamarindos, Los"
76,rio grande,22.0752,-159.319,73.4,78,75,5.14,US,1619446156,22.0786593,-159.3149317,Hotel Coral Reef
77,cherskiy,22.6783,-3.9836,105.98,8,58,2.3,ML,1619446157,,,
78,manaus,68.0531,39.5131,31.05,84,100,9.99,RU,1619446158,,,
79,illoqqortoormiut,-51.6226,-69.2181,48.2,71,75,1.03,AR,1619446130,-51.6215486,-69.2170402,Hotel Patagonia
80,mataura,65.7,82.4667,29.1,90,17,5.23,RU,1619446159,65.7048094,82.4638738,Krasnosel'kupnefteprodukt
81,willowmore,-21.2,-175.2,77.0,94,75,3.09,TO,1619446160,-21.1553145,-175.1771504,Paradise First Hotel
82,guerrero negro,-0.7393,-90.3518,78.8,83,75,6.17,EC,1619446161,-0.7426328,-90.3098144,Galapagos Habitat by Eco Luxury Group
83,almonte,-22.092,-70.1979,70.77,58,0,3.09,CL,1619446161,-22.0800553,-70.1932312,Hostal Paraiso
84,kapaa,-3.5534,143.6268,79.41,81,34,1.17,PG,1619446162,-3.5489598,143.6297775,In Wewak Boutique Hotel
85,taoudenni,-14.55,48.7333,69.64,90,76,0.95,MG,1619446163,,,
86,ostrovnoy,-22.9661,-42.0278,78.8,83,20,3.6,BR,1619446163,-22.9587565,-42.0259149,Ocean View Hotel
87,rio gallegos,-18.2494,-43.6003,77.02,42,82,1.01,BR,1619446164,-18.2504681,-43.5949918,Pousada do Garimpo - Diamantina / MG
88,krasnoselkup,17.1561,-89.0714,78.8,78,0,3.09,BZ,1619446164,17.1536273,-89.06851189999999,San Ignacio Resort Hotel
89,sorvag,7.7669,-72.225,82.4,69,40,2.57,VE,1619446165,7.792056499999999,-72.23512319999999,Lidotel Hotel Boutique San Cristobal
90,vaini,36.6777,-121.6555,46.4,93,1,0.21,US,1619446156,36.6986995,-121.670083,Courtyard by Marriott Salinas Monterey
91,puerto ayora,-54.8,-68.3,41.0,87,75,1.54,AR,1619446166,-54.83788999999999,-68.359933,Hotel Los Yámanas de Ushuaia
92,tocopilla,50.3643,108.7512,30.85,91,60,5.15,RU,1619446166,,,
93,wewak,51.5877,-2.9984,57.0,48,16,3.13,GB,1619446166,51.6095886,-2.9542441,The Priory Hotel & Restaurant - Caerleon
94,bealanana,58.8053,-122.7002,26.6,74,75,4.63,CA,1619446167,58.80326900000001,-122.6903268,Lakeview Inns & Suites - Fort Nelson
95,arraial do cabo,-19.55,169.2667,76.37,79,100,5.18,VU,1619446167,-19.5507345,169.2790061,Tanna Ikamir Guest House
96,diamantina,7.7029,27.9953,91.76,38,87,2.85,SS,1619446167,7.713394099999999,27.9606007,Amarula Lodge and Restaurant
97,san ignacio,18.6853,12.9164,106.72,6,2,4.31,NE,1619445976,,,
98,san cristobal,51.3813,1.3862,48.99,52,100,3.58,GB,1619446168,51.3623276,1.4443978,Bay Tree Hotel
99,salinas,20.5169,-13.0499,97.0,12,53,3.06,MR,1619446160,20.519051,-13.0621033,Bab Sahara
100,ushuaia,64.8569,-147.8028,32.0,80,75,1.22,US,1619446169,64.8311337,-147.8478188,Pike's Waterfront Lodge
101,krasnyy chikoy,54.1088,102.1648,32.72,92,95,6.1,RU,1619446170,54.1034026,102.1610416,Yermak
102,newport,34.3833,131.2,55.4,67,0,4.12,JP,1619446170,34.369381,131.182714,KULABO Taishokan
103,fort nelson,58.6881,99.1844,26.26,94,55,1.24,RU,1619446170,,,
104,isangel,36.2411,115.6672,57.52,83,98,4.19,CN,1619446171,36.2350842,115.6834617,Yingbin Hotel
105,wau,-38.0023,-57.5575,61.0,72,20,2.06,AR,1619446171,-38.0199336,-57.5263691,Hotel Las Rocas
106,bilma,-33.9258,18.4232,68.0,64,75,6.17,ZA,1619445399,-33.9596092,18.3852981,Atlanticview Cape Town Boutique Hotel
107,margate,-33.0153,27.9116,77.0,61,0,3.6,ZA,1619445908,-32.9834715,27.9510976,Blue Lagoon Hotel
108,barentsburg,70.8578,29.0864,35.6,64,75,6.69,NO,1619446171,70.857078,29.09885599999999,Berlevåg camping & Appartement AS
109,atar,55.38,91.6,36.05,98,91,2.01,RU,1619446172,55.3783754,91.608446,Bereg
110,college,41.3712,-73.414,46.4,42,20,3.6,US,1619445957,41.4161338,-73.4007034,Best Western Danbury/Bethel
111,sayansk,65.8167,87.9833,21.29,91,31,1.12,RU,1619445892,65.80129769999999,87.9712102,"ООО ""Туруханская пушнина"""
112,nagato,40.8021,-124.1637,46.0,89,33,1.95,US,1619446173,40.800933,-124.174373,Best Western Plus Humboldt Bay Inn
113,kodinsk,-30.1391,-51.2244,66.2,72,40,4.63,BR,1619446173,,,
114,shenxian,28.6585,-17.9182,73.4,60,75,3.09,ES,1619446174,28.6433261,-17.9349355,Hotel Hacienda de Abajo
115,mar del plata,19.1059,37.3321,89.78,53,3,4.2,SD,1619446174,19.1092728,37.31575309999999,Abha hotel
116,cape town,48.0448,40.045,46.4,87,40,6.0,RU,1619446174,,,
117,east london,22.9333,57.5333,94.1,11,68,2.41,OM,1619446175,22.9062255,57.53315730000001,Al Diyar Hotel
118,berlevag,60.1432,-45.2371,33.91,99,100,3.33,GL,1619446156,60.1434625,-45.2366004,Hotel Kap Farvel
119,balakhta,64.2273,27.7285,35.6,69,90,3.6,FI,1619446175,64.224918,27.7312372,Original Sokos Hotel Valjus
120,bethel,19.7297,-155.09,69.8,83,75,0.92,US,1619446176,19.7284039,-155.066467,Hilo Hawaiian Hotel
121,turukhansk,-20.4081,57.7,78.8,78,75,7.2,MU,1619445985,-20.4407751,57.6714245,Holiday Inn Mauritius Mon Tresor
122,eureka,32.9854,70.6027,90.36,15,12,1.95,PK,1619446176,32.9954002,70.6217723,کرم اِن ہوٹل Kurram Inn Hotel
123,ipanema,-11.9472,-75.2829,55.17,63,8,0.92,PE,1619446176,-11.9176634,-75.31292669999999,Hotel Museo Casona Ugarte Leon
124,los llanos de aridane,-29.5128,-51.9853,64.0,91,98,0.78,BR,1619446177,-29.5080947,-51.96767800000001,Estrela Palace Hotel
125,sawakin,34.6391,-120.4579,50.0,93,7,2.08,US,1619446178,34.6574784,-120.4584883,Hilton Garden Inn Lompoc
126,almaznyy,-0.6136,-47.3561,84.24,68,92,3.7,BR,1619446179,-0.5944579999999999,-47.3132057,Hotel Concha do Mar
127,nizwa,64.3833,-173.3,31.42,93,80,0.49,RU,1619446180,,,
128,nanortalik,60.5544,-151.2583,32.0,80,1,1.54,US,1619446181,60.559102,-151.2346845,Aspen Extended Stay Suites
129,alotau,22.6667,106.25,68.85,97,100,0.32,VN,1619446181,22.6677445,106.2604855,Max Boutique Hotel
130,kajaani,42.1859,127.479,48.06,61,100,2.29,CN,1619446182,,,
131,hilo,14.2,24.6667,93.0,5,82,6.15,SD,1619446183,,,
132,mahebourg,38.7333,-27.0667,64.0,67,40,3.74,PT,1619445998,38.7211726,-27.0626286,Atlântida Mar Hotel
133,bannu,-34.5322,20.0403,69.8,60,0,4.63,ZA,1619446185,-34.5340801,20.0395701,Victoria Hotel - Bredasdorp
134,san jeronimo,67.6333,134.6333,29.23,98,100,1.89,RU,1619446185,,,
135,cruzeiro do sul,58.4825,24.8152,41.0,100,100,0.89,EE,1619446186,58.4889186,24.9054758,Villa River Rose
136,lompoc,16.5833,82.0167,91.4,55,20,3.6,IN,1619446186,16.5756735,82.001699,Hotel Grand Park
137,salinopolis,48.1667,-1.6667,63.0,39,0,6.17,FR,1619446187,48.12287689999999,-1.668799,"LeCoq-Gadby Hôtel & Spa, The Originals Relais"
138,provideniya,45.5334,-77.0994,37.0,34,1,6.17,CA,1619446187,45.5500364,-77.1111391,Pine Tree Motel
139,kenai,35.7333,140.8333,50.0,57,20,3.6,JP,1619445928,35.731537,140.825568,Hotel Sunrise Choshi
140,cao bang,-24.4167,150.5,60.49,73,0,2.77,AU,1619446188,-24.4015243,150.5117299,Biloela Hotel
141,songjianghe,51.7522,-1.256,55.0,43,0,4.63,GB,1619446188,51.7549614,-1.2530806,Bath Place Hotel
142,kutum,-5.1989,-35.4608,86.0,66,40,5.66,BR,1619446189,-5.226640199999999,-35.415863,Hotel Vila Gale Touros
143,praia da vitoria,4.1213,43.8894,87.98,40,98,2.79,SO,1619446190,4.1196589,43.8878135,Abdimalik Hotel and Training Center
144,belushya guba,-28.7667,114.6,64.4,68,97,3.09,AU,1619446191,-28.7738192,114.6082717,Ocean Centre Hotel
145,bredasdorp,-26.5333,153.1,64.0,91,1,0.45,AU,1619446191,-26.5419286,153.0965,The Point Coolum Beach - Ocean View Accommodation
146,batagay,37.1041,-113.5841,61.0,29,40,3.09,US,1619446170,37.1249441,-113.5275804,Comfort Inn Saint George North
147,bossembele,50.6789,156.125,29.79,94,100,8.72,RU,1619446192,50.6610621,156.1144998,Kak Doma
148,karaul,-20.1883,32.6236,80.98,24,11,2.12,ZW,1619446193,-20.1866136,32.6248728,Chipinge Breeze Lodge
149,tori,27.8333,113.15,59.0,100,90,2.0,CN,1619446194,27.8373833,113.1494256,Hilton Zhuzhou
150,jinchengjiang,28.7519,54.5444,78.96,26,89,5.49,IR,1619446194,28.7605701,54.5619665,Naghshe shapoor Hotel
151,amalapuram,-34.5838,-60.9433,62.37,65,0,1.99,AR,1619446195,-34.6147789,-60.9525801,Arena Ranch Hotel & Apart
152,rennes,28.6868,69.9534,101.61,7,5,3.58,PK,1619446195,,,
153,eganville,-24.8667,113.6333,69.8,83,0,2.28,AU,1619446195,-24.8923413,113.6550343,Hospitality Carnarvon
154,samusu,10.5669,72.642,85.37,68,0,2.39,IN,1619446195,10.570591,72.6381459,Bismillah Hotel And Lodging
155,hasaki,-41.0667,145.9167,51.01,81,8,2.24,AU,1619446196,-41.0502796,145.9066988,Beachfront Voyager Motor Inn
156,biloela,13.5928,-89.8275,77.0,83,0,1.16,SV,1619446150,13.5887132,-89.8342137,Villavela Hotel Boutique
157,oxford,30.4397,48.1664,102.2,19,0,5.14,IR,1619446197,30.4374145,48.20573599999999,Green Hotel
158,touros,70.6333,147.9167,23.11,94,100,2.77,RU,1619446198,,,
159,xuddur,-5.2246,145.7966,76.75,86,97,0.92,PG,1619446198,-5.2082485,145.8103168,Madang Resort
160,geraldton,41.7355,-111.8344,37.4,93,90,1.54,US,1619446199,41.7207173,-111.833886,SpringHill Suites by Marriott Logan
161,coolum beach,-42.8794,147.3294,51.8,71,6,2.57,AU,1619446199,-42.8808631,147.3335418,Hotel Grand Chancellor Hobart
162,saint george,-38.6533,178.0042,50.0,74,0,1.34,NZ,1619446199,-38.6676912,178.0280613,Emerald Hotel Gisborne
163,severo-kurilsk,-38.7,-73.1667,51.8,64,90,1.03,CL,1619446199,-38.7136253,-73.1670929,Hostal de carahue
164,chipinge,42.8,93.45,56.08,12,26,3.39,CN,1619446200,42.8457177,93.5018673,Tianma Hotel
165,mys shmidta,4.9247,6.2642,95.22,43,56,1.94,NG,1619446200,4.9368207,6.2783479,Meglams Hotel
166,zhuzhou,-3.4667,102.5333,68.7,96,30,1.36,ID,1619446201,-3.4716474,102.5301671,Golden Rich Hotel
167,darab,37.7167,-25.4333,62.6,72,75,5.66,PT,1619446201,37.7147319,-25.469431,Pestana Bahia Praia
168,grand river south east,5.8808,-10.0467,91.4,62,75,2.06,LR,1619446206,5.8770487,-10.0520798,Hotel Buchanan Liberia
169,junin,-20.5167,57.5167,78.8,78,75,7.2,MU,1619446206,-20.5129094,57.4951332,SkylineInn Hotel
170,rojhan,55.7435,-97.8558,26.6,100,90,1.54,CA,1619446208,55.74570070000001,-97.8516398,Best Western Thompson Hotel & Suites
171,carnarvon,-45.4167,167.7167,37.4,88,75,0.82,NZ,1619446208,-45.4162124,167.7133478,Distinction Luxmore Hotel Te Anau
172,kavaratti,-20.3297,-40.2925,84.2,70,0,3.6,BR,1619446115,-20.310606,-40.2826805,Hotel Senac Ilha do Boi
173,burnie,42.4308,130.6434,43.74,88,100,3.14,RU,1619446209,,,
174,acajutla,43.2039,140.7703,32.0,68,6,4.0,JP,1619446210,43.187197,140.793581,HOTEL LOOP (余市バル ループ レストラン&ホテル)
175,khorramshahr,4.1363,96.1285,79.5,83,100,2.21,ID,1619446210,4.156042999999999,96.13850079999999,Bin Daod Hotel and Restaurant
176,tsihombe,-12.1688,26.3894,70.0,81,74,1.11,ZM,1619446211,-12.1841878,26.432106,Royal Solwezi Hotel
177,lolua,47.0667,51.8667,62.6,63,40,7.0,KZ,1619446212,47.1043998,51.9112721,Hotel Atyrau
178,chokurdakh,46.6166,10.7002,55.99,67,75,2.57,IT,1619446157,46.6165613,10.7005175,Gasthof Zur Sonne
179,madang,-37.8811,147.981,48.0,92,0,3.65,AU,1619446214,-37.8826838,147.9746235,The Esplanade Resort & Spa
180,logan,58.1089,49.9161,37.24,91,100,7.7,RU,1619446214,,,
181,hobart,50.4001,-105.5344,33.8,100,90,1.03,CA,1619446215,50.3941481,-105.534442,Grant Hall Hotel
182,gisborne,-2.5744,150.7967,81.84,74,97,1.37,PG,1619446215,-2.5824077,150.7809143,Nusa Island Retreat
183,carahue,5.3833,-52.95,79.02,88,100,4.51,GF,1619446215,5.3623934,-52.9624634,L'oiseau de Paradis
184,hami,22.2855,114.1577,75.0,83,100,0.45,HK,1619446215,22.284671,114.1923123,TUVE
185,yenagoa,-14.4086,-56.4461,71.38,87,100,2.71,BR,1619446216,-14.4096088,-56.44747539999999,Hotel Villa Dos parecis
186,curup,-15.1961,12.1522,86.0,58,20,5.14,AO,1619446217,-15.1978317,12.1575544,Hotel Chik Chik Namibe
187,vila franca do campo,4.9333,-52.3333,78.8,94,75,2.57,GF,1619446218,4.9347711,-52.3045524,Mercure Cayenne Royal Amazonia
188,buchanan,37.9281,102.6414,47.79,37,9,1.93,CN,1619446218,37.934008,102.6398,Wuwei Ruiyi International Hotel
189,souillac,-30.1811,-50.2056,66.74,66,61,6.07,BR,1619446031,-30.1778807,-50.2035006,Hotel Castelo
190,thompson,-33.7333,-70.75,64.99,55,0,0.34,CL,1619446220,-33.7318742,-70.737427,Hostal Condell
191,te anau,26.7617,-81.4384,78.01,69,1,2.06,US,1619446221,26.7682126,-81.3914843,Port LaBelle Inn
192,vila velha,6.8833,73.1,85.24,70,19,2.91,MV,1619446208,6.889691099999999,73.1120938,"DhidhdhooINN, BeachView"
193,khasan,-9.8,-139.0333,79.59,69,100,6.26,PF,1619446222,-9.8040123,-139.0256961,Hôtel Hiva Oa Hanakee Lodge
194,yoichi,-8.8368,13.2343,86.0,74,20,6.17,AO,1619445805,-8.8034088,13.2420229,Hotel Presidente Luanda
195,meulaboh,64.75,177.4833,19.4,93,100,3.0,RU,1619446223,64.7349323,177.5161254,Chukotka hotel
196,solwezi,-10.4544,161.9205,79.18,84,100,2.34,SB,1619446224,,,
197,balykshi,38.5167,-28.7,64.4,72,20,5.14,PT,1619446224,38.5222086,-28.7105125,Quinta Das Buganvílias
198,hunza,63.05,179.3167,22.21,96,58,1.88,RU,1619446224,,,
199,lasa,14.8961,-24.4956,72.46,74,26,5.19,CV,1619446224,14.8995932,-24.4981834,Hotel Xaguate
200,nizhneyansk,-5.0892,-81.1144,69.8,83,75,8.23,PE,1619446225,-5.086183999999999,-81.11210899999999,Hotel Buongiorno
201,lakes entrance,40.2833,97.2,50.7,14,89,4.12,CN,1619446225,,,
202,kumeny,66.8333,70.8333,34.88,91,100,7.06,RU,1619446225,66.86857069999999,70.8292934,"Hotel ""Nord House"""
203,moose jaw,44.0622,131.1207,45.16,60,77,1.61,CN,1619446226,44.058981,131.125734,Huayu Hotel
204,kavieng,38.4167,77.2406,70.12,12,1,2.11,CN,1619446226,38.414222,77.247519,Xinsheng Hotel
205,sinnamary,-20.4597,-66.825,42.87,18,0,4.48,BO,1619446227,-20.4654838,-66.8265174,Hotel de Sal Casa Andina
206,victoria,-22.8833,-43.1036,84.0,83,75,1.54,BR,1619446227,-22.9029826,-43.1344595,Quality Hotel Niterói
207,marcona,-23.1862,27.4886,85.71,8,0,0.59,BW,1619446228,,,
208,diamantino,51.219,22.6962,39.2,70,20,1.54,PL,1619446228,51.21137539999999,22.6968593,Hotel Restauracja Notabene
209,namibe,-0.9516,122.7875,77.31,83,85,1.2,ID,1619446228,-0.9879494,122.7860761,Swiss-Belinn Hotel Luwuk
210,aflu,17.3367,96.4797,86.0,74,40,4.63,MM,1619446229,17.30806,96.46515989999999,Supreme Hotel
211,cayenne,-1.8283,-44.8683,87.55,59,93,2.53,BR,1619446229,-1.8274657,-44.8712329,Hotel Kelma
212,wuwei,69.7008,170.3133,14.68,95,100,1.2,RU,1619446229,69.700893,170.2872947,Severnoye Zoloto
213,cidreira,44.6453,-63.5724,53.6,94,75,6.17,CA,1619445783,44.651162,-63.57344999999999,Halifax Marriott Harbourfront Hotel
214,buin,20.7833,97.0333,65.46,81,90,1.69,MM,1619446230,20.7692517,97.0435577,Taunggyi Hotel
215,labelle,29.8458,-90.1067,73.99,78,75,4.63,US,1619446230,29.8783067,-90.05243589999999,TownePlace Suites by Marriott New Orleans Harvey/West Bank
216,dhidhdhoo,22.8909,-109.9124,69.01,25,40,2.57,MX,1619446230,22.888203,-109.9059105,Bahia Hotel & Beach House
217,atuona,69.4865,88.3972,11.91,88,100,3.77,RU,1619446231,,,
218,luanda,-25.2406,130.9889,64.4,29,0,4.12,AU,1619446231,-25.2390223,130.9834051,Sails in the Desert
219,bolungarvik,51.5,95.6,32.63,72,86,1.61,RU,1619446231,,,
220,anadyr,28.3667,129.4833,63.79,67,93,5.33,JP,1619446231,28.3992271,129.5071563,山羊島ホテル
221,kirakira,49.1919,-98.1014,37.4,80,100,3.09,CA,1619446232,49.1935272,-98.0759506,Best Western Plus Morden
222,ribeira grande,35.1333,140.3,55.4,62,20,5.66,JP,1619446232,35.1501612,140.3221602,Katsuura Hilltop Hotel & Residence
223,beringovskiy,42.1584,-72.3287,45.0,45,40,8.75,US,1619446098,42.1541031,-72.326157,The Trainmaster's Inn
224,sao filipe,8.9333,8.6,98.62,32,59,1.96,NG,1619446233,8.9449334,8.6017363,Roma Zee Guest House Annex
225,paita,33.194,-82.5271,66.2,48,1,5.14,US,1619446234,,,
226,yumen,69.3833,178.4167,18.46,94,100,1.88,RU,1619446234,,,
227,yar-sale,26.5881,127.9761,69.8,68,1,1.54,JP,1619446235,26.604552,127.9741798,Super Hotel Okinawa Nago
228,dongning,-3.8004,102.2655,78.53,88,51,2.61,ID,1619446150,-3.8011121,102.2749441,Mercure Bengkulu
229,shache,45.0205,-93.218,41.0,81,75,5.66,US,1619446235,44.984955,-93.27256799999999,Hewing Hotel
230,uyuni,-6.8844,112.2051,80.17,80,9,3.25,ID,1619446235,,,
231,niteroi,16.08,97.5675,81.48,77,83,2.74,MM,1619446236,,,
232,machaneng,-23.7781,-45.3581,76.95,68,68,1.14,BR,1619446237,-23.7799432,-45.3555353,Hotel Maison Joly
233,swidnik,50.9667,9.8,55.99,33,0,0.89,DE,1619446238,51.0050543,9.7338921,Göbel's Hotel Rodenberg
234,luwuk,-35.1167,139.2667,50.0,97,1,1.18,AU,1619446165,-35.1182098,139.2762277,Balcony On Sixth Lodge
235,bago,39.1667,25.9333,64.4,59,20,5.14,GR,1619446239,39.1349399,25.9297777,"SAPPHO Eresos, HOTEL, DOVAS ANTONIOS"
236,cururupu,71.9667,102.5,15.51,91,100,4.77,RU,1619446240,,,
237,pevek,42.0304,-8.1588,63.0,76,93,1.34,PT,1619446241,42.030689,-8.15978,Hotel Castrum Villae
238,halifax,35.3667,132.7667,51.8,62,75,8.23,JP,1619446241,35.3613031,132.7574206,Twin Leaves Hotel Izumo
239,taunggyi,4.423,-7.3528,84.79,71,57,3.77,CI,1619446242,4.4207899,-7.355918099999999,hotêl doufoulougou
240,sentyabrskiy,-34.0033,24.7314,66.99,73,100,1.34,ZA,1619446242,,,
241,estelle,-36.4,174.6667,55.0,92,7,0.45,NZ,1619446243,-36.37483590000001,174.7052917,Plume Villas
242,cabo san lucas,23.2667,69.6667,92.48,31,17,5.9,IN,1619446243,23.2349091,69.64567079999999,Regenta Resort Bhuj
243,talnakh,-0.6,73.0833,83.53,63,15,2.31,MV,1619446243,-0.59966,73.08155,Abuharee Grand
244,yulara,63.8424,-22.4338,48.2,66,0,1.54,IS,1619446243,63.88139169999999,-22.4296278,Northern Light Inn & Max's Restaurant
245,saryg-sep,-9.9133,-63.0408,76.86,81,95,2.72,BR,1619446244,-9.9043101,-63.0346975,Valériu's Palace Hotel
246,naze,28.8947,64.4101,93.33,9,79,2.38,PK,1619446244,28.8850687,64.40182519999999,Al-Dawood Hotel & Restaurant
247,morden,-13.8833,167.55,81.64,76,96,4.65,VU,1619446245,,,
248,katsuura,-22.6667,167.4833,73.71,70,81,9.55,NC,1619445976,-22.6644075,167.4485915,OURE TERA beach resort
249,palmer,-20.2208,-70.1431,66.2,59,0,2.57,CL,1619446084,-20.267913,-70.129637,Hotel NH Iquique
250,wamba,51.0333,-4.2167,57.0,56,8,0.45,GB,1619446246,51.0338478,-4.2119768,Durrant House Hotel
251,avera,68.2191,-135.0107,10.4,85,92,3.6,CA,1619446246,68.2191796,-135.0129116,Sundog Inn
252,leningradskiy,43.5407,-116.5635,45.0,100,75,3.09,US,1619446247,43.5839228,-116.5723996,Best Western Plus Peppertree Nampa Civic Center Inn
253,nago,57.5058,-1.7981,51.01,76,90,5.66,GB,1619446247,57.50616179999999,-1.7817321,Palace Hotel
254,palabuhanratu,-31.6333,-60.7,69.01,53,0,1.34,AR,1619446188,-31.6433805,-60.7071876,InterTower Hotel
255,bengkulu,-14.4667,132.2667,80.6,74,40,2.57,AU,1619446247,-14.471673,132.290457,ibis Styles Katherine
256,saint anthony,68.5333,146.4167,6.84,91,26,2.79,RU,1619446248,,,
257,labuhan,1.7427,98.7792,79.41,85,100,0.71,ID,1619446248,1.7400779,98.7750762,Hotel Wisata Indah
258,kyaikkami,38.421,-121.4238,45.0,87,1,1.42,US,1619446249,38.4266746,-121.4821789,Hampton Inn & Suites Sacramento-Elk Grove Laguna I-5
259,wahran,12.0708,1.7889,106.41,17,34,1.89,BF,1619446250,,,
260,nguiu,18.1725,120.5953,77.79,73,19,3.78,PH,1619446251,18.2094899,120.6025997,JAVA HOTEL
261,ilhabela,13.35,-15.75,100.71,12,7,3.38,GM,1619446252,,,
262,bebra,-3.4167,114.85,82.4,78,90,2.57,ID,1619446252,-3.431928,114.8489015,RedDoorz Syariah near Q Mall Banjarbaru
263,murray bridge,42.5466,-6.5962,63.0,65,94,1.79,ES,1619446164,42.5493031,-6.5829939,AC Hotel by Marriott Ponferrada
264,eresos,-33.6971,-53.4616,66.42,54,10,5.62,UY,1619446254,-33.6927191,-53.4585083,Hotel Internacional
265,khatanga,24.4667,54.3667,95.0,36,0,4.12,AE,1619446181,24.4616436,54.3172833,Emirates Palace
266,vila,43.3236,145.575,32.86,68,5,6.11,JP,1619446254,43.331028,145.5828857,Hotel Nemuro Kaiyoutei
267,izumo,7.5264,-12.505,89.37,57,42,5.26,SL,1619446255,7.525635100000001,-12.500587,Bonthe Holiday Village
268,louisbourg,50.6996,-127.4199,42.8,100,40,2.06,CA,1619446256,50.7126951,-127.4914403,Quarterdeck Inn Resort & Marina
269,tabou,42.4165,-122.8345,41.0,92,91,0.63,US,1619446226,42.3696838,-122.8777939,Courtyard by Marriott Medford Airport
270,kruisfontein,48.0056,91.6419,39.76,22,90,2.01,MN,1619446256,47.999487,91.6376903,Steppe hotel
271,warkworth,47.6666,-52.7314,50.0,46,90,10.8,CA,1619446257,,,
272,bhuj,41.5388,-8.6151,68.0,68,20,3.6,PT,1619446257,41.5315387,-8.6169136,Hotel Restaurante Bagoeira
273,hithadhoo,6.0367,80.217,82.11,77,29,1.76,LK,1619446257,6.027352,80.24234899999999,CocoBay Unawatuna
274,grindavik,-10.6167,150.6667,82.08,76,99,2.89,PG,1619446258,-10.6258967,150.6450828,Nuli Sapi
275,ariquemes,39.4735,-118.7774,37.4,60,40,1.76,US,1619446246,39.4745819,-118.790005,Best Western Fallon Inn & Suites
276,dalbandin,55.3422,-131.6461,33.8,80,1,0.71,US,1619446258,55.3707338,-131.7196905,Edgewater Inn Restaurant & Marina
277,sola,-8.4667,118.7167,74.44,81,29,2.05,ID,1619446259,-8.4522146,118.7242822,Hotel Marina
278,vao,45.3167,55.2,91.76,11,26,7.24,KZ,1619446260,45.3268737,55.18565359999999,Gostinitsa Zhibek-Zholy Beyneu
279,iquique,-31.5783,-53.3811,64.0,92,0,3.58,BR,1619446261,-31.5736403,-53.3869978,Hotel Dal Cortivo (Pinheiro Machado)
280,northam,33.4918,-80.8557,66.99,48,1,3.09,US,1619446261,33.509118,-80.855512,Southern Lodge & Suites
281,aklavik,65.441,52.1498,40.21,94,100,0.93,RU,1619446262,,,
282,nampa,21.5453,-77.2644,82.4,65,0,3.09,CU,1619446262,21.5367966,-77.26619749999999,Hotel Caonaba
283,peterhead,22.5667,59.5289,91.96,36,0,1.86,OM,1619446263,22.5664354,59.4958585,Sur Plaza Hotel
284,santa fe,48.9167,2.3333,64.0,29,0,6.69,FR,1619445971,48.9015274,2.3059076,L'imprimerie hôtel
285,katherine,-15.8631,-38.8828,82.4,65,40,5.66,BR,1619446264,-15.8633112,-38.8754943,Pousada do Diogo
286,belaya gora,-20.7377,116.8463,78.33,47,0,1.2,AU,1619446264,-20.7376386,116.8419976,Karratha International Hotel
287,sibolga,65.75,150.85,8.92,88,18,3.19,RU,1619446265,,,
288,laguna,-23.8597,35.3472,82.4,69,40,4.12,MZ,1619446265,-23.887821,35.39576,Sentidos Beach Retreat
289,diapaga,64.1835,-51.7216,37.4,93,75,4.12,GL,1619446224,64.1750084,-51.7360949,Hotel Hans Egede
290,san nicolas,12.5847,-81.7006,86.0,62,20,4.63,CO,1619446266,12.582673,-81.7186737,Casa Harb Hotel Boutique
291,nioro,36.9559,36.2,68.0,80,0,7.6,TR,1619446266,36.951793,36.250442,Hattusa Vacation Thermal Club Erzin
292,martapura,-13.8483,136.4192,77.0,100,100,2.48,AU,1619446267,-13.841225,136.40949,Groote Eylandt Lodge
293,ponferrada,42.3709,-71.1828,48.2,46,1,9.26,US,1619446267,42.3987999,-71.1471744,AC Hotel by Marriott Boston Cambridge
294,chuy,36.1683,54.348,81.21,22,97,1.34,IR,1619446267,36.1735039,54.357727,Danesh Hotel
295,abu dhabi,47.4167,26.2167,50.0,50,0,3.09,RO,1619446267,,,
296,nemuro,51.381,58.9813,48.2,100,90,1.0,RU,1619446268,51.3836822,58.9833831,"Hotel ""Legend"""
297,bonthe,-46.2817,169.8464,43.0,69,88,0.45,NZ,1619446269,,,
298,port hardy,-20.5833,17.4333,81.57,17,0,2.39,,1619446269,,,
299,jackson,11.6667,92.75,82.4,74,46,2.81,IN,1619446270,11.6761772,92.74020039999999,Welcomhotel Bay Island Port Blair
300,hovd,57.2645,16.4484,46.99,40,100,1.79,SE,1619446270,57.2644805,16.4495007,Clarion Collection Hotel Post
301,torbay,-16.4833,-151.75,80.06,70,0,1.16,PF,1619446270,-16.5052016,-151.7014465,InterContinental Bora Bora Resort Thalasso Spa
302,barcelos,-14.9003,50.2788,78.96,82,28,4.52,MG,1619446271,-14.914644,50.2929818,Belle rose beach Hotel
303,galle,33.7333,135.9833,47.48,62,24,2.56,JP,1619446271,33.729029,135.9908336,Hotel New Palace
304,samarai,36.2946,-76.2511,62.01,44,0,7.2,US,1619446234,36.2988345,-76.2514843,Fairfield Inn & Suites by Marriott Elizabeth City
305,fallon,50.0162,22.6778,46.99,51,100,2.24,PL,1619446271,50.0013777,22.6729536,Hotel Jarosław
306,ketchikan,26.1247,127.6694,69.8,64,20,2.57,JP,1619446271,26.1320273,127.6529371,Southern Beach Hotel & Resort Okinawa
307,bima,13.2167,-59.5167,80.6,57,75,9.77,BB,1619446272,13.2111111,-59.5141667,Atlantis Hotel
308,beyneu,28.615,-96.6261,73.99,83,40,4.63,US,1619446252,28.6408995,-96.6131705,Holiday Inn Express & Suites Port Lavaca
309,pinheiro machado,44.0333,20.45,63.0,42,0,4.63,RS,1619446273,44.0212757,20.4582352,IG Hotel
310,orangeburg,67.667,12.6934,39.2,60,75,3.6,NO,1619446273,,,
311,ust-tsilma,21.4612,-71.1419,78.89,71,65,5.19,TC,1619446083,21.4595508,-71.14743039999999,Osprey Beach Hotel
312,nuevitas,41.0982,120.7479,51.96,45,6,4.01,CN,1619446274,,,
313,sur,-9.8756,-56.0861,75.2,100,90,1.54,BR,1619446274,-9.8778858,-56.0971488,Floresta Amazonica Hotel
314,saint-denis,21.3469,-158.0858,73.4,78,1,2.06,US,1619446028,21.333048,-158.1202725,Marriott's Ko Olina Beach Club
315,belmonte,47.7106,0.511,64.99,39,100,7.2,FR,1619446275,47.72799699999999,0.5758261,Hotel de France
316,karratha,6.1241,81.1185,82.4,94,20,2.57,LK,1619446275,6.133493000000001,81.1319334,The Peacock Beach Hotel Hambantota
317,zyryanka,-8.4667,140.3333,77.9,89,100,3.21,ID,1619446275,,,
318,maxixe,-23.85,151.25,68.0,68,0,3.6,AU,1619446276,-23.842108,151.2546476,Oaks Gladstone Grand Hotel
319,nuuk,-45.8742,170.5036,44.01,68,99,6.71,NZ,1619446276,-45.912409,170.4885452,Hotel Saint Clair
320,san andres,5.3991,100.3638,86.0,74,20,1.54,MY,1619445984,5.4231701,100.3357086,"Eastern & Oriental Hotel, Penang"
321,erzin,22.5206,-79.4669,82.4,69,75,3.09,CU,1619446277,22.5263777,-79.44258099999999,Hotel Brisas del Mar
322,alyangula,-29.6842,-53.8069,60.8,77,20,1.54,BR,1619445906,-29.6881322,-53.8006348,Altadomo Hotel
323,watertown,-28.783,32.0377,74.46,69,0,2.88,ZA,1619446191,-28.7932974,32.0807935,BON Hotel Waterfront Richards Bay
324,damghan,43.4583,39.9244,51.8,93,90,3.0,RU,1619446278,43.4166853,39.9281319,Dubai Hotel
325,baia,8.0,98.25,87.01,94,75,4.12,TH,1619446278,8.0119819,98.2956485,Banyan Tree Phuket
326,novoorsk,29.9576,122.298,60.49,88,54,4.48,CN,1619446279,29.9770539,122.3299901,Hilton Zhoushan
327,kaitangata,43.0645,44.7417,57.2,77,75,6.0,RU,1619446279,43.0307095,44.6801956,Aleksandrovskiy
328,okakarara,51.6667,135.7,40.8,63,87,1.92,RU,1619446279,51.6778036,135.6908576,"Hotel ""Phoenix"""
329,port blair,70.0167,135.6,26.82,98,100,0.59,RU,1619446280,,,
330,oskarshamn,42.207,-71.6856,46.0,45,1,7.2,US,1619446280,42.2064392,-71.6849149,The Grafton Inn
331,faanui,61.67,96.37,25.25,90,9,1.38,RU,1619446281,,,
332,antalaha,-0.8667,134.0833,78.69,82,99,1.43,ID,1619446282,-0.8571698,134.0670345,Swiss Belhotel Manokwari
333,shingu,41.2351,1.8119,60.01,81,100,1.26,ES,1619446283,41.2341652,1.8042442,Hotel Calipolis
334,elizabeth city,9.2667,-3.0,100.36,30,98,2.25,CI,1619446283,9.2666057,-2.9868473,GNIME'S HÔTEL
335,jaroslaw,40.8028,29.4307,60.8,44,40,2.06,TR,1619446283,40.8492421,29.4141413,Workinn Hotel
336,itoman,60.7253,114.9278,21.63,83,87,2.64,RU,1619446284,60.73344359999999,114.9462388,Mini-hotel Uyut
337,bathsheba,-20.3167,118.5667,69.8,68,0,3.6,AU,1619446224,-20.3087,118.610356,Hedland Hotel
338,port lavaca,39.1672,8.5222,69.8,72,40,6.69,IT,1619446285,39.1674734,8.5163621,Lu 'Hotel
339,gornji milanovac,-25.2986,152.8535,64.0,82,0,3.09,AU,1619446285,-25.282624,152.9010368,Oaks Hervey Bay Resort and Spa
340,sorland,65.9667,78.3667,33.87,99,100,6.62,RU,1619446286,65.9675239,78.3830989,Gostinnitsa Medveditsa
341,cockburn town,70.0311,20.9714,33.8,86,40,2.57,NO,1619446286,70.036585,20.981856,Hotel Maritim Skjervøy AS
342,nanpiao,64.8945,-23.7142,41.0,66,11,4.78,IS,1619446286,64.8938282,-23.7037158,Við Hafið Guesthouse
343,alta floresta,55.4167,22.6167,40.12,71,99,5.79,LT,1619446287,55.4609759,22.6941866,Pas Medžiotoją Motelis
344,makakilo city,0.5,29.4667,65.89,92,100,2.13,CD,1619446287,0.499012,29.452754,Albertine hotel
345,marcon,-29.9533,-71.3436,55.4,94,90,2.06,CL,1619445994,-29.9473352,-71.2912383,Enjoy Coquimbo Hotel de la Bahía
346,hambantota,59.0925,57.8008,36.0,100,100,1.79,RU,1619446287,,,
347,merauke,43.7501,-81.7165,37.4,56,35,3.6,CA,1619446288,43.75212690000001,-81.6977897,Samuels Hotel
348,gladstone,28.017,-97.5169,77.0,83,75,7.72,US,1619446288,28.0285823,-97.52950510000001,Americas Best Value Inn Sinton
349,dunedin,33.5928,-7.6192,75.2,77,40,8.23,MA,1619446164,33.5995886,-7.6638173,Four Seasons Hotel Casablanca
350,butterworth,51.5001,-107.0513,41.0,60,48,3.09,CA,1619446290,51.48335480000001,-107.0588453,Mokai Inn & Suites
351,caibarien,50.5667,116.25,36.81,80,100,3.67,RU,1619446291,,,
352,ruatoria,68.6949,15.4162,37.4,81,75,5.14,NO,1619446291,68.69503019999999,15.4122801,Sortland Hotel
353,santa maria,-41.4122,175.5153,57.2,72,45,5.66,NZ,1619446168,,,
354,richards bay,23.1742,112.2809,73.99,99,100,1.09,CN,1619446292,23.190573,112.3067,Zhaoqing Tiankai Hot Spring Resort Hotel
355,orel-izumrud,17.25,-88.7667,84.2,78,0,3.09,BZ,1619446293,17.2903349,-88.77599540000001,Banana Bank Horses & Belize Jungle Lodge
356,phuket,41.1415,-73.3579,48.99,43,40,6.17,US,1619446294,41.1099811,-73.3688293,The Inn at Longshore by OnTheMarc
357,shenjiamen,78.2186,15.6401,23.0,63,20,6.69,SJ,1619446294,78.2209799,15.6471583,"Radisson Blu Polar Hotel, Spitsbergen"
358,oktyabrskoye,42.7762,-9.0603,64.0,83,30,4.02,ES,1619446295,42.7776604,-9.0600462,Hotel La Muradana
359,berezovyy,69.2167,-51.1,51.8,37,75,7.72,GL,1619446295,69.2269568,-51.0931588,Hotel Arctic
360,ust-kuyga,-11.3847,43.2844,87.8,66,20,4.12,KM,1619446295,-11.4202737,43.270747,Al Camar Lodge
361,grafton,-26.6481,15.1594,68.74,75,25,4.85,,1619446079,-26.652957,15.14962,LÜDERITZ NEST HOTEL
362,baykit,60.3964,-1.353,44.6,93,75,8.23,GB,1619446296,60.38375300000001,-1.375947,Busta House Hotel
363,manokwari,52.3195,38.3453,51.03,56,99,6.59,RU,1619446296,,,
364,sitges,-16.9167,145.7667,73.4,94,90,5.14,AU,1619446192,-16.9204811,145.7803154,"Shangri-La Hotel, The Marina, Cairns"
365,bouna,8.4054,48.4845,88.48,40,100,1.85,SO,1619446298,8.4084158,48.4837239,Cadduun Hotel
366,gebze,-15.7667,128.7333,75.2,88,100,1.43,AU,1619446298,-15.7837588,128.7355459,Freshwater East Kimberley Apartments | Kununurra Accommodation
367,lensk,-0.8833,131.25,80.11,81,79,1.87,ID,1619446300,-0.889363,131.2749649,Swiss-Belhotel Sorong
368,port hedland,63.1115,7.732,44.6,42,0,4.63,NO,1619446158,63.1084914,7.728188899999998,Scandic Kristiansund
369,carbonia,46.55,125.1167,63.37,18,100,8.02,CN,1619446301,46.5952819,125.0922445,Sheraton Daqing Hotel
370,hervey bay,58.965,-3.296,46.4,93,90,5.66,GB,1619446301,58.962675,-3.299158,The Royal Hotel
371,urengoy,-20.2333,164.0167,76.26,61,17,10.04,NC,1619446302,,,
372,skjervoy,12.5776,-87.027,80.6,74,20,2.66,NI,1619446302,,,
373,olafsvik,10.9995,122.6711,78.12,80,62,2.74,PH,1619446302,,,
374,skaudvile,11.5544,-1.7736,106.39,17,85,1.78,BF,1619446303,11.5487833,-1.7620549,Auberge St Louis
375,beni,25.5198,90.2201,83.43,23,46,1.34,IN,1619446303,25.5144682,90.1922063,Hotel Polo Orchid
376,coquimbo,3.8678,17.9892,97.21,29,15,1.65,CF,1619446303,,,
377,severnyy-kospashskiy,-5.2511,-42.2103,87.55,56,52,2.0,BR,1619446304,-5.2539227,-42.2099571,pousada E Restaurante Longá
378,goderich,-12.0667,134.2667,74.55,93,100,2.66,AU,1619446304,-12.0567302,134.2316741,Dhukurrdji Lodge
379,san patricio,7.6833,124.6833,67.96,91,98,0.31,PH,1619446305,,,
380,casablanca,-43.3002,-65.1023,62.94,46,45,2.83,AR,1619446306,-43.322365,-65.0501401,Complejo Bahia Ballenas
381,outlook,65.3667,64.6667,37.2,100,100,1.91,RU,1619446306,,,
382,sherlovaya gora,43.4065,-124.2243,46.4,93,90,3.09,US,1619446307,43.3700366,-124.21267,Best Western Holiday Hotel
383,takob,46.4333,26.4,45.0,47,42,1.06,RO,1619446307,46.421899,26.4403981,Pensiunea Sophia
384,sortland,-1.3959,120.7524,77.47,89,85,1.98,ID,1619446307,-1.388373,120.7455368,Ancyra Hotel
385,waipawa,6.3005,-10.7969,91.4,62,75,2.06,LR,1619446308,6.292135099999999,-10.7792633,The Royal Grand Hotel
386,lubu,-18.3667,21.85,86.43,22,81,1.49,BW,1619446308,-18.3919538,21.8532137,Ditlhapi lodge
387,belmopan,28.7167,78.2833,91.54,7,0,3.29,IN,1619446308,,,
388,westport,62.2266,-6.589,48.2,81,75,4.63,FO,1619446309,62.22828029999999,-6.5947193,Hotel Klaksvík
389,longyearbyen,9.2319,-80.0867,84.2,74,40,5.14,PA,1619446310,,,
390,canitas,-12.7406,-60.1458,69.8,88,75,4.63,BR,1619446310,-12.7406969,-60.1406974,Hotel Mirage
391,muros,-19.0595,-169.9187,69.8,100,56,1.03,NU,1619446310,-19.0607788,-169.9217526,Taloa Heights
392,ilulissat,31.953,12.0261,95.72,7,21,10.65,LY,1619446311,,,
393,mitsamiouli,51.1167,133.0167,41.27,52,96,1.95,RU,1619446311,51.13899319999999,133.0437234,Gostinitsa Ostrov
394,luderitz,-2.6741,141.3028,78.01,82,81,0.51,PG,1619446025,-2.6856463,141.3045088,Vanimo Beach Hotel
395,brae,59.758,18.705,39.2,56,75,8.23,SE,1619446311,59.75792999999999,18.7073473,Åtellet Hotell och Restaurang
396,dolgorukovo,-8.7676,160.7034,79.27,87,100,2.91,SB,1619446312,-8.7707611,160.6978127,Auki Lodge
397,cairns,-46.1333,167.6833,42.01,84,100,4.77,NZ,1619446114,-46.1351529,167.6897393,Tui Base Camp Motels
398,garowe,-34.7333,135.8667,61.02,78,0,4.19,AU,1619446313,-34.7178306,135.8544911,Port Lincoln Hotel
399,kununurra,30.199,67.0097,77.5,14,0,0.86,PK,1619446314,30.204409,67.0122453,Serena Hotel Quetta
400,ngukurr,53.5739,142.9478,23.97,86,5,3.29,RU,1619446314,53.5917602,142.9473253,Empire Hotel
401,sorong,17.9583,-102.2,77.97,55,100,1.39,MX,1619446157,17.9599748,-102.1951299,Hotel de Casablanca
402,kristiansund,42.439,-123.3284,42.01,93,90,0.54,US,1619446314,42.4311166,-123.3293086,The Lodge at Riverside
403,longfeng,40.6995,-99.0815,60.8,67,1,4.12,US,1619446315,40.6739904,-99.0899795,Hampton Inn Kearney
404,stromness,-9.4333,159.95,77.67,88,76,1.96,SB,1619446315,-9.429483,159.952769,Heritage Park Hotel
405,poum,18.0333,73.0167,84.29,71,5,1.62,IN,1619446315,18.0450134,73.0109281,Woodvillas Beachfront Resort
406,chichigalpa,-20.0064,57.6608,75.99,91,100,2.68,MU,1619446316,-19.9940639,57.6364867,TUI SENSIMAR Lagoon
407,dingle,-2.0078,-54.0692,84.16,69,97,2.05,BR,1619446316,-2.0033816,-54.0688403,Hotel Janny
408,sapouy,18.4917,-71.8502,84.2,61,40,3.6,DO,1619446316,18.495758,-71.8470505,Hotel Jimani
409,tura,22.2394,68.9678,82.87,74,0,7.2,IN,1619446317,22.238962,68.9618366,Dwarkadhish Lords Eco Inn
410,mbaiki,39.2667,141.8833,38.16,67,0,2.52,JP,1619446318,39.2691874,141.8860932,Rikuchu Coast Grand Hotel
411,alto longa,8.0829,-72.8007,82.4,69,40,2.57,CO,1619446318,8.083836999999999,-72.828253,Motel la gran estacion
412,maningrida,-30.3833,153.1,57.2,94,67,2.55,AU,1619446319,-30.3747912,153.0468697,Bonville Lodge
413,kuche,5.6592,-53.7767,79.81,87,100,4.48,GF,1619446320,5.6599906,-53.7770331,LE SAMANA
414,wao,39.9523,-75.1638,48.99,43,20,7.2,US,1619446222,39.9486274,-75.164198,Cambria Hotel Downtown-Center City
415,rawson,-7.1638,-78.5003,62.6,67,20,1.54,PE,1619446322,-7.1569119,-78.51829420000001,Hotel Costa del Sol Cajamarca
416,muzhi,-31.95,141.4333,60.8,51,6,4.63,AU,1619446323,-31.95777949999999,141.4657271,Royal Exchange Hotel
417,north bend,63.4564,48.8989,43.52,72,100,1.13,RU,1619446324,,,
418,asau,41.2971,124.1209,59.0,51,0,6.0,CN,1619446325,41.288582,124.131131,Garden Hotel
419,poso,32.296,-81.2354,71.6,64,20,4.12,US,1619446326,32.25131,-81.215327,Rincon Inn And Suites
420,monrovia,-9.0122,-35.2225,83.48,67,54,3.86,BR,1619446327,-9.0279387,-35.2277312,Salinas do Maragogi All Inclusive Resort
421,shakawe,-28.2939,-49.9317,68.0,59,56,2.36,BR,1619446328,-28.2936336,-49.9325436,São Joaquim Park Hotel
422,hasanpur,43.3578,76.8594,64.4,32,75,3.0,KZ,1619446329,43.3217524,76.9152917,Saraichik Hotel
423,klaksvik,54.7183,135.315,27.23,97,94,1.32,RU,1619446329,,,
424,palmas bellas,33.8464,-118.0467,57.2,76,90,2.06,US,1619446330,33.8684331,-118.0605969,Sheraton Cerritos Hotel
425,vilhena,-28.24,-48.6703,73.4,64,0,2.06,BR,1619446331,-28.246528,-48.666917,Praia Hotel Imbituba
426,alofi,-41.8697,-73.8203,55.99,87,75,4.12,CL,1619446332,-41.862372,-73.830086,Panamericana Hotel Ancud
427,el balyana,62.55,149.6667,-5.08,93,5,2.17,RU,1619446333,62.5227417,149.6269876,Guest House Yagodnoe
428,utiroa,-12.0432,-77.0282,64.0,94,90,1.54,PE,1619446275,-12.0872222,-77.035,Hotel La Princesa
429,jadu,44.4122,40.7936,47.84,98,100,3.25,RU,1619446334,44.43181999999999,40.742145,База отдыха АКВА-ВИТА термальные источники
430,chegdomyn,40.7072,140.5894,39.0,76,0,1.34,JP,1619446335,,,
431,vanimo,64.8989,45.7622,41.79,86,100,2.17,RU,1619446336,64.9022552,45.7492189,"Gostevoy Dom ""Gornitsa"""
432,norrtalje,-2.0226,147.2712,81.05,76,100,0.7,PG,1619446336,-2.0201417,147.2668717,Tharapiyap Lodge
433,auki,69.6496,18.957,35.6,75,75,2.06,NO,1619446337,69.649131,18.9606826,"Radisson Blu Hotel, Tromsø"
434,tuatapere,-8.3989,-35.0639,82.4,69,40,4.12,BR,1619446338,,,
435,port lincoln,-13.7,-76.2167,66.2,88,40,2.06,PE,1619446339,-13.7273747,-76.222341,HOSTAL MIRAMAR
436,quetta,29.2497,117.8547,63.57,93,97,0.27,CN,1619446339,29.243317,117.868345,Wuyuan International Hotel
437,okha,58.9785,47.0246,35.42,97,100,5.3,RU,1619446342,,,
438,lazaro cardenas,38.75,30.6667,57.2,67,75,7.72,TR,1619446168,,,
439,grants pass,39.1834,-84.5333,57.99,62,1,3.04,US,1619446175,39.13669040000001,-84.5075217,Graduate Cincinnati
440,kearney,54.7682,-101.865,30.2,74,75,2.06,CA,1619446343,54.7687301,-101.8431759,Victoria Inn Flin Flon
441,honiara,36.175,-115.1372,61.0,36,90,10.8,US,1619445737,36.154911,-115.1496614,The Shalimar Hotel
442,srivardhan,66.0,111.5,9.52,93,99,9.38,RU,1619446344,,,
443,grand gaube,36.9034,-104.4391,55.4,13,1,3.09,US,1619446344,36.8843649,-104.4349989,Best Western Plus Raton Hotel
444,monte alegre,50.0351,23.797,46.4,36,40,6.0,UA,1619446345,,,
445,jimani,-17.7125,-39.2481,85.23,57,76,3.89,BR,1619446346,-17.7431944,-39.24093329999999,Mar Doce de Abrolhos
446,dwarka,57.2586,39.1508,48.2,46,0,9.0,RU,1619446346,57.2554358,39.1538594,"Hotel ""The Ark"""
447,kamaishi,58.5781,24.7925,41.0,100,100,0.89,EE,1619446346,,,
448,sardinata,42.1167,118.7833,55.42,54,100,4.9,CN,1619446347,,,
449,sawtell,51.9225,4.4792,57.0,43,4,5.14,NL,1619446347,51.907017,4.488659,nhow Rotterdam
450,mana,5.8933,95.3214,83.26,75,100,5.84,ID,1619446347,5.888186,95.34297090000001,Casa Nemo Beach Resort & Spa
451,filadelfia,-33.0117,17.9442,66.2,72,17,7.72,ZA,1619446348,-33.0091148,17.9475989,Saldanha Bay Hotel
452,cajamarca,57.8,158.6667,26.55,97,100,1.69,RU,1619446348,,,
453,broken hill,-11.0964,-77.6139,68.43,81,13,3.63,PE,1619446350,-11.077966,-77.59070799999999,Hotel Villa Kitzia Huacho
454,koslan,20.0,-3.0,105.89,7,73,1.24,ML,1619446350,,,
455,kilmez,54.3419,101.5036,34.05,94,100,5.18,RU,1619446351,54.3522352,101.5225612,Zhemchug
456,xiaoshi,11.2842,49.1816,86.0,79,40,3.09,SO,1619446352,11.283802,49.1761864,huruuse hotel
457,rincon,10.0447,11.2122,100.8,21,7,1.74,NG,1619446352,,,
458,maragogi,4.3133,-72.0816,85.66,62,100,1.63,CO,1619446353,4.311332999999999,-72.078865,Hotel Camelot Plaza
459,sao joaquim,51.226,-58.6502,41.47,71,100,6.59,CA,1619446353,,,
460,zhuozhou,32.6881,128.8419,60.89,60,10,0.71,JP,1619446354,,,
461,boralday,-11.7292,-49.0686,78.03,76,100,1.25,BR,1619446354,-11.7337,-49.0808414,Oiti Hotel
462,chumikan,27.9054,-15.4461,71.01,68,75,5.14,ES,1619446355,27.9061325,-15.4468709,Hotel Rural Casa de Los Camellos
463,la palma,62.6323,17.9379,46.4,42,57,6.17,SE,1619446355,62.6339639,17.938693,First Hotel Stadt
464,imbituba,-23.865,35.3833,82.4,69,40,4.12,MZ,1619446298,-23.887821,35.39576,Sentidos Beach Retreat
465,ancud,27.0531,-82.4243,75.99,73,1,4.63,US,1619446355,27.0995915,-82.4588801,Inn at the Beach
466,yagodnoye,65.9811,60.3094,42.85,76,100,7.37,RU,1619446355,,,
467,bolonchen,-20.7333,139.5,78.8,29,100,4.63,AU,1619446356,-20.7262877,139.4907257,Redearth Boutique Hotel
468,lima,11.5936,37.3908,68.34,67,97,3.75,ET,1619446357,11.6038024,37.3796352,Blue Nile Resort Hotel
469,mostovskoy,0.6092,33.4686,75.87,73,45,0.79,UG,1619446358,0.6029846,33.4871918,NV FORT LUGARD RESORT HOTEL
470,namioka,-32.5,137.7667,55.4,88,7,1.54,AU,1619446358,-32.4888567,137.7631795,Majestic Oasis Apartments
471,leshukonskoye,6.4965,2.6036,89.6,70,40,5.66,BJ,1619446358,6.482921999999999,2.6010933,HOTEL AYELAWADJE 2
472,lorengau,-9.8297,-36.7378,84.27,57,100,3.37,BR,1619446359,,,
473,tromso,36.1867,-94.1288,66.99,63,1,4.12,US,1619446151,36.174626,-94.182119,DoubleTree Club by Hilton Hotel Springdale
474,ipojuca,47.1847,38.8462,46.0,87,100,5.81,RU,1619446359,47.2167912,38.8864719,Park-Hotel Malikon
475,pisco,71.6872,128.8694,19.13,95,100,5.25,RU,1619446359,71.6922089,128.871611,Arktika
476,ziyang,52.9999,-122.5029,24.8,80,1,1.49,CA,1619446360,52.963728,-122.4423226,Sandman Hotel Quesnel
477,umzimvubu,35.3501,-80.2001,63.0,51,1,2.57,US,1619446113,35.3443182,-80.1789124,Holiday Inn Express & Suites Albemarle
478,bogovarovo,63.7506,-68.5145,33.8,86,90,2.57,CA,1619446360,63.74742699999999,-68.5106562,Frobisher Inn
479,afyonkarahisar,-26.2023,28.0436,77.0,28,5,1.67,ZA,1619445654,-26.172052,28.064735,The Munro Boutique Hotel
480,hamilton,-21.8019,-54.5464,76.26,51,0,3.15,BR,1619446361,-21.7966272,-54.53920859999999,Gold Hotel
481,flin flon,31.61,34.7642,73.0,44,20,0.89,IL,1619446176,31.6027431,34.7643394,Desert Gat
482,las vegas,-21.6403,-41.0511,82.4,74,40,0.9,BR,1619446362,-21.6235172,-41.0169733,Pousada Rio Sol
483,aykhal,-21.15,149.2,73.4,68,4,6.17,AU,1619446362,-21.1646092,149.1962497,Ocean International Hotel
484,raton,18.3851,42.4509,59.0,88,75,2.06,SA,1619446363,,,
485,sumbawa,-4.05,19.5333,84.18,68,97,1.04,CD,1619446363,,,
486,kozulka,35.1167,25.7178,66.99,59,20,7.2,GR,1619446363,35.1251953,25.7533139,Istron Bay Hotel
487,caravelas,60.9167,-46.05,41.0,75,75,4.12,GL,1619446364,60.9101227,-46.0404289,Igdlo Guesthouse
488,borisoglebskiy,50.0334,-66.8654,42.01,93,90,5.66,CA,1619446135,,,
489,tootsi,54.4333,-124.25,33.94,67,31,1.04,CA,1619446365,54.44223599999999,-124.256975,The View Hotel
490,mujiayingzi,25.5333,-103.25,75.2,23,75,0.33,MX,1619446365,25.5385121,-103.2249742,HOTEL PLAZA MATAMOROS
491,rotterdam,-40.8135,-62.9967,62.17,50,23,6.39,AR,1619446366,-40.805397,-62.989328,Hotel Austral Viedma
492,babanusah,24.6877,46.7219,95.0,14,75,3.09,SA,1619446366,24.7114858,46.6745289,Four Seasons Hotel Riyadh At Kingdom Center
493,sabang,64.0019,44.4451,40.91,89,100,2.71,RU,1619446366,63.9995531,44.4517995,Hotel Pinezhskaya Sloboda
494,saldanha,-10.1667,123.5833,74.28,63,4,3.38,ID,1619446205,-10.1454044,123.6160471,ASTON Kupang Hotel & Convention Center
495,tigil,16.9833,73.3,83.89,74,0,2.48,IN,1619446141,16.9864098,73.30778459999999,Hotel Landmark
496,hualmay,4.375,-7.7169,85.69,67,88,3.16,LR,1619446156,,,
497,tombouctou,14.6937,-17.4441,75.2,73,40,6.17,SN,1619446086,14.694667,-17.4730578,"Radisson Blu Hotel, Dakar Sea Plaza"
498,kuytun,-36.7167,-73.1167,57.2,77,20,4.63,CL,1619446367,-36.7162156,-73.1107007,Hotel Düsseldorf
499,bosaso,-8.4192,20.7447,81.14,56,93,0.71,AO,1619446367,,,
500,kumo,58.6978,81.4825,42.31,91,100,5.04,RU,1619446368,58.7025877,81.4980724,Levkada
501,puerto gaitan,69.3,139.9,17.13,91,100,1.26,RU,1619446368,,,
502,saint-augustin,-22.2763,166.4572,75.99,94,75,3.09,NC,1619446368,-22.3018092,166.446066,Hilton Noumea La Promenade Residences
503,fukue,29.1167,75.1667,95.99,9,0,3.32,IN,1619446368,29.102941,75.14420199999999,Hotel Moti Palace
504,gurupi,44.0361,39.1489,52.83,95,100,4.2,RU,1619446369,44.0772539,39.1382489,Country House V Lesu
505,aguimes,-19.5667,18.1167,79.57,20,0,1.83,,1619446208,-19.5454535,18.0746416,Seidarap
506,harnosand,58.0106,114.2769,31.77,95,100,1.87,RU,1619446369,,,
507,inhambane,-36.6167,-71.8333,53.6,94,75,5.14,CL,1619446372,,,
508,south venice,56.45,138.1667,25.79,92,97,0.87,RU,1619446373,,,
509,verkhnyaya inta,69.4719,25.5112,35.6,75,90,6.17,NO,1619446373,69.4735417,25.5099249,Scandic Karasjok
510,mount isa,-8.145,159.5921,80.6,82,48,2.19,SB,1619446374,-8.1663894,159.6190128,Ghaseali Island Resort
511,bahir dar,50.0,88.6667,33.49,41,22,1.76,RU,1619446374,49.9687785,88.6395965,Fermerskiy Dom v Kosh-Agache
512,iganga,21.4022,-157.7394,73.4,73,75,4.12,US,1619446375,,,
513,port augusta,44.0787,-80.2041,39.0,57,40,3.69,CA,1619446376,44.0910345,-80.1426216,Shelburne Motel
514,porto novo,20.8667,-90.4,80.15,67,33,4.47,MX,1619446376,20.8676459,-90.39656509999999,Playa 55 beach escape
515,lagoa da canoa,-1.6792,29.2228,73.4,56,40,4.12,CD,1619446377,-1.7041852,29.2602825,Lake Kivu Serena Hotel
516,springdale,70.4692,-68.5914,23.0,100,90,2.06,CA,1619446250,70.47231359999999,-68.5887238,Naujaaraaluit – Clyde River Hotel
517,novobessergenevka,34.5828,-117.4092,46.99,78,100,2.68,US,1619446378,34.5796738,-117.4110022,California Inn Hotel and Suites
518,tiksi,28.281,68.4388,101.79,6,0,1.84,PK,1619446379,28.2798422,68.4384315,Al Mairaj Hotel
519,quesnel,-18.9333,48.2,66.25,97,99,2.13,MG,1619446380,-18.9465859,48.2301345,Bezanozano Hotel Moramanga
520,albemarle,62.3153,27.873,41.0,75,90,5.14,FI,1619446381,62.3147539,27.8914671,Hotel Oscar
521,iqaluit,1.2391,23.616,89.74,44,44,2.02,CD,1619446381,,,
522,johannesburg,20.931,-17.0347,75.2,57,0,6.69,MR,1619446381,20.9213625,-17.0426394,HOtel Tasiast
523,rio brilhante,-4.352,152.2633,78.76,81,87,1.2,PG,1619446382,-4.3347139,152.2600435,Gazelle International Hotel
524,gat,32.6333,-16.85,68.0,60,40,4.63,PT,1619446383,32.64173960000001,-16.8298938,Roca Mar Hotel
525,sao joao da barra,40.0444,-111.7321,46.99,87,90,2.57,US,1619446384,40.053761,-111.731598,Quality Inn Payson I-15
526,mackay,-35.1667,173.1667,56.57,81,7,2.6,NZ,1619446385,-35.1809339,173.129338,The Huts
527,faya,55.6059,13.0007,48.99,61,75,0.51,SE,1619446385,55.6076622,12.994153,Clarion Hotel Malmö Live
528,mangai,36.5167,-86.8667,63.0,63,1,2.57,US,1619446386,36.4883809,-86.87864359999999,Hampton Inn Springfield
529,solsvik,47.6833,17.6351,48.2,61,100,3.09,HU,1619446387,47.6694733,17.6486732,Hotel Garzon Plaza
530,pirgos,-16.3575,-46.9061,85.26,47,100,0.81,BR,1619446267,-16.3591881,-46.9015111,Hotel Regente
531,rungata,22.6906,58.5334,96.62,8,30,7.09,OM,1619446388,22.7244987,58.52434150000001,Golden Rays hotel
532,narsaq,-0.9131,122.8766,76.64,81,88,1.37,ID,1619446388,,,
533,port-cartier,-17.5333,-149.3333,75.2,83,20,2.57,PF,1619446389,-17.5395619,-149.3664944,Le Rocher de Tahiti
534,fort saint james,0.15,29.2833,62.22,92,100,1.33,CD,1619446390,0.1333945,29.2889795,Hotel Ivatsiro
535,tumannyy,16.8634,-99.8901,78.8,78,1,2.06,MX,1619446102,16.826175,-99.86206399999999,Hotel Las Brisas Acapulco
536,matamoros,-3.3244,114.591,82.4,78,90,2.57,ID,1619446392,-3.323694,114.6025692,Mercure Banjarmasin
537,viedma,66.5606,67.7975,34.65,99,100,4.17,RU,1619446392,,,
538,riyadh,54.3161,-130.3201,44.6,87,1,1.54,CA,1619446112,54.31610329999999,-130.3245638,Crest Hotel
539,karpogory,41.2835,-70.0995,50.0,57,1,9.26,US,1619446243,41.2902419,-70.1023127,The Beachside on Nantucket
540,kupang,14.5333,20.9167,103.95,5,11,4.92,TD,1619446395,14.5275335,20.9145449,Hôtel Trois Étoiles de Biltine
541,ratnagiri,54.5163,-128.6035,30.2,86,1,0.51,CA,1619446396,54.51286229999999,-128.5451783,Holiday Inn Express & Suites Terrace
542,harper,52.7,115.1667,33.49,88,98,6.54,RU,1619446398,52.69291279999999,115.1897906,"Gostinitsa ""Aleksandriya"""
543,dakar,36.6167,101.7667,49.3,27,34,1.67,CN,1619446398,36.6435,101.721252,Sofitel Xining
544,talcahuano,54.8717,19.9381,42.8,61,40,7.0,RU,1619446398,54.8669562,19.937788,Sshloss Hotel Yantarny
545,lucapa,33.0833,-16.3333,66.2,77,40,7.72,PT,1619446400,33.05057,-16.346786,Hotel Porto Santo & Spa
546,parabel,1.1983,-70.1733,80.06,76,98,1.4,CO,1619446401,,,
547,deputatskiy,1.7471,40.0573,95.0,38,40,0.51,KE,1619446401,1.746813,40.05984309999999,Wajir Guest House
548,noumea,50.5994,97.5228,23.4,88,81,1.41,RU,1619446403,,,
549,bhadra,-2.85,11.0333,85.21,71,95,1.91,GA,1619446403,,,
550,shepsi,59.2816,32.4707,34.18,98,100,2.48,RU,1619446404,59.2923363,32.4488954,Piligrim
551,grootfontein,21.6,96.1333,89.29,45,16,4.0,MM,1619446404,21.596134,96.13735799999999,San palace Hotal
552,balakhninskiy,66.7131,27.4306,35.89,68,100,3.3,FI,1619446405,66.71882599999999,27.4209009,Hotel Uitonniemi
553,coihueco,-34.5833,150.8552,55.0,82,10,0.45,AU,1619446406,-34.5622291,150.8305358,Lakeview Hotel Motel
554,ayan,21.3333,74.5667,91.2,27,73,9.05,IN,1619446406,21.3297435,74.5548062,Sachin hotel
555,karasjok,1.0,-52.0,82.74,72,95,1.3,BR,1619446408,,,
556,buala,49.9333,116.8667,41.14,71,93,5.08,RU,1619446409,,,
557,kosh-agach,60.3725,93.0408,26.2,93,21,1.4,RU,1619446410,60.377474,93.029907,Gostinyy Dvor Estel' Miniotel' V Severo-Yeniseyske
558,kailua,34.388,67.0233,60.98,22,98,1.98,AF,1619446410,,,
559,shelburne,37.6775,-113.0619,51.8,32,75,11.32,US,1619446411,37.654911,-113.079992,Courtyard by Marriott Cedar City
560,celestun,9.56,44.065,72.0,67,80,5.79,SO,1619446411,9.5603523,44.0876168,Maamuus Hotel Hargeisa
561,goma,59.6425,-151.5483,39.99,74,1,2.06,US,1619446412,59.6417846,-151.5363464,Aspen Suites Hotel Homer
562,clyde river,45.5234,-122.6762,48.2,81,90,1.03,US,1619446326,45.5210826,-122.6783237,Hotel Lucia
563,adelanto,54.1502,-115.6855,24.8,63,40,2.57,CA,1619446233,54.1409262,-115.6839955,Travelodge by Wyndham Conference Centre & Suit
564,jacobabad,-20.2833,44.2833,82.18,69,100,4.19,MG,1619446413,-20.3000259,44.2679367,Palissandre Cote Ouest resort & SPA
565,moramanga,54.4815,53.471,51.31,49,99,5.34,RU,1619446413,54.48134719999999,53.4669402,Hotel Devon
566,varkaus,60.4667,166.1,29.86,99,100,1.29,RU,1619446413,,,
567,basoko,16.2833,95.6833,85.06,57,69,4.38,MM,1619446414,16.2961245,95.681029,နွေဦးဝေ တည်းခိုခန်း
568,nouadhibou,43.801,87.6005,59.0,36,0,3.0,CN,1619445975,43.82055700000001,87.60707000000001,JinJiang International Hotel Urumqi
569,kokopo,-2.9248,-39.9167,85.6,62,23,5.08,BR,1619446414,-2.881193,-39.907898,White Wind Resort
